{
  "stations": [
    {
      "name": "Zurich HB",
      "coordinates": {
        "latitude": 47.3769,
        "longitude": 8.5417
      },
      "country": "Switzerland"
    },
    {
      "name": "Geneva",
      "coordinates": {
        "latitude": 46.2104,
        "longitude": 6.1420
      },
      "country": "Switzerland"
    },
    {
      "name": "Bern",
      "coordinates": {
        "latitude": 46.9489,
        "longitude": 7.4395
      },
      "country": "Switzerland"
    },
    {
      "name": "Frankfurt am Main",
      "coordinates": {
        "latitude": 50.110924,
        "longitude": 8.682127
      },
      "country": "Germany"
    },
    {
      "name": "Graz",
      "coordinates": {
        "latitude": 47.076668,
        "longitude": 15.421371
      },
      "country": "Austria"
    }
  ]
}